[
    {
        "band": "She Past Away",
        "start_year": 2006,
        "end_year": null,
        "city": "Bursa",
        "state": "",
        "country": "Turkey",
        "latitude": 39.9895878,
        "longitude": 28.8944669,
        "Influences": "",
        "Influenced_by": "",
        "notes": ""
    },
    {
        "band": "Otto Dix",
        "start_year": 2004,
        "end_year": null,
        "city": "Khabarovsk",
        "state": "",
        "country": "Russia",
        "latitude": 51.6312684,
        "longitude": 136.121524,
        "Influences": "",
        "Influenced_by": "",
        "notes": ""
    },
    {
        "band": "Jakuzi",
        "start_year": 2015,
        "end_year": null,
        "city": "Istanbul",
        "state": "",
        "country": "Turkey",
        "latitude": 41.0766019,
        "longitude": 29.052495,
        "Influences": "",
        "Influenced_by": "",
        "notes": ""
    },
    {
        "band": "Fiction 8",
        "start_year": 1989,
        "end_year": null,
        "city": "Boulder",
        "state": "Colorado",
        "country": "USA",
        "latitude": 40.0149856,
        "longitude": -105.270545,
        "Influences": "",
        "Influenced_by": "",
        "notes": ""
    },
    {
        "band": "Breath of Life",
        "start_year": 1985,
        "end_year": null,
        "city": "Gembloux",
        "state": "",
        "country": "Belgium",
        "latitude": 50.5597273,
        "longitude": 4.6943126,
        "Influences": "",
        "Influenced_by": "",
        "notes": ""
    },
    {
        "band": "Mittageisen",
        "start_year": 1981,
        "end_year": null,
        "city": "Zurich",
        "state": "",
        "country": "Switzerland",
        "latitude": 47.3744489,
        "longitude": 8.5410422,
        "Influences": "",
        "Influenced_by": "",
        "notes": ""
    },
    {
        "band": "Clan of Xymox",
        "start_year": 1981,
        "end_year": null,
        "city": "Nijmegen",
        "state": "",
        "country": "Dutch",
        "latitude": 35.1396114,
        "longitude": -79.020835,
        "Influences": "",
        "Influenced_by": "",
        "notes": ""
    },
    {
        "band": "Diary of Dreams",
        "start_year": 1989,
        "end_year": null,
        "city": "Dusseldorf",
        "state": "",
        "country": "Germany",
        "latitude": 51.2254018,
        "longitude": 6.7763137,
        "Influences": "",
        "Influenced_by": "",
        "notes": ""
    },
    {
        "band": "The Cruxshadows",
        "start_year": 1992,
        "end_year": null,
        "city": "Jacksonville",
        "state": "Florida",
        "country": "USA",
        "latitude": 30.3321838,
        "longitude": -81.655651,
        "Influences": "",
        "Influenced_by": "",
        "notes": ""
    },
    {
        "band": "Switchblade Sumphony",
        "start_year": 1989,
        "end_year": 1999,
        "city": "San Francisco",
        "state": "",
        "country": "USA",
        "latitude": 37.7790262,
        "longitude": -122.419906,
        "Influences": "",
        "Influenced_by": "",
        "notes": ""
    },
    {
        "band": "Blutengel",
        "start_year": 1998,
        "end_year": null,
        "city": "Berlin",
        "state": "",
        "country": "Germany",
        "latitude": 52.5170365,
        "longitude": 13.3888599,
        "Influences": "",
        "Influenced_by": "",
        "notes": ""
    },
    {
        "band": "Faith and the Muse",
        "start_year": 1993,
        "end_year": null,
        "city": "Los Angeles",
        "state": "California",
        "country": "USA",
        "latitude": 34.0536909,
        "longitude": -118.242766,
        "Influences": "",
        "Influenced_by": "",
        "notes": ""
    },
    {
        "band": "K\u00c3\u00a6lan Mikla",
        "start_year": 2013,
        "end_year": null,
        "city": "Reykjavik",
        "state": "",
        "country": "Iceland",
        "latitude": 64.145981,
        "longitude": -21.9422367,
        "Influences": "",
        "Influenced_by": "",
        "notes": ""
    },
    {
        "band": "Lebanon Hanover",
        "start_year": 2010,
        "end_year": null,
        "city": "Sunderland",
        "state": "",
        "country": "England",
        "latitude": 54.9058512,
        "longitude": -1.3828727,
        "Influences": "",
        "Influenced_by": "",
        "notes": ""
    },
    {
        "band": "Lycia",
        "start_year": 1988,
        "end_year": null,
        "city": "Tempe",
        "state": "Arizona",
        "country": "USA",
        "latitude": 33.4255117,
        "longitude": -111.940016,
        "Influences": "",
        "Influenced_by": "",
        "notes": ""
    },
    {
        "band": "Drab Majesty",
        "start_year": 2011,
        "end_year": null,
        "city": "Los Angeles",
        "state": "California",
        "country": "USA",
        "latitude": 34.0536909,
        "longitude": -118.242766,
        "Influences": "",
        "Influenced_by": "",
        "notes": ""
    },
    {
        "band": "Parzival",
        "start_year": 1999,
        "end_year": null,
        "city": "Copenhagen",
        "state": "",
        "country": "Denmark",
        "latitude": 55.6867243,
        "longitude": 12.5700724,
        "Influences": "",
        "Influenced_by": "",
        "notes": ""
    },
    {
        "band": "Dargaard",
        "start_year": 1997,
        "end_year": null,
        "city": "Mistelbach",
        "state": "",
        "country": "Austria",
        "latitude": 48.5694535,
        "longitude": 16.5720327,
        "Influences": "",
        "Influenced_by": "",
        "notes": ""
    },
    {
        "band": "Light Asylum",
        "start_year": 2008,
        "end_year": null,
        "city": "Brooklyn",
        "state": "New York",
        "country": "New York",
        "latitude": 40.6526006,
        "longitude": -73.9497211,
        "Influences": "",
        "Influenced_by": "",
        "notes": ""
    },
    {
        "band": "She Wants Revenge",
        "start_year": 2005,
        "end_year": 2020,
        "city": "San Fernando Valley",
        "state": "California",
        "country": "USA",
        "latitude": 34.2148853,
        "longitude": -118.4998204,
        "Influences": "",
        "Influenced_by": "",
        "notes": ""
    },
    {
        "band": "Boy Harsher",
        "start_year": 2013,
        "end_year": null,
        "city": "Savannah",
        "state": "Georgia",
        "country": "USA",
        "latitude": 32.0790074,
        "longitude": -81.0921335,
        "Influences": "",
        "Influenced_by": "",
        "notes": ""
    },
    {
        "band": "Deine Lakaien",
        "start_year": 1985,
        "end_year": null,
        "city": "Munich",
        "state": "",
        "country": "Germany",
        "latitude": 48.1371079,
        "longitude": 11.5753822,
        "Influences": "",
        "Influenced_by": "",
        "notes": ""
    },
    {
        "band": "Sopor Aeternus & the Ensemble of Shadows",
        "start_year": 1989,
        "end_year": null,
        "city": "Frankfurt",
        "state": "",
        "country": "Germany",
        "latitude": 50.1106444,
        "longitude": 8.6820917,
        "Influences": "",
        "Influenced_by": "",
        "notes": ""
    },
    {
        "band": "Dvar",
        "start_year": 1996,
        "end_year": null,
        "city": "None",
        "state": "",
        "country": "Russia",
        "latitude": 64.6863136,
        "longitude": 97.7453061,
        "Influences": "",
        "Influenced_by": "",
        "notes": ""
    },
    {
        "band": "L'\u00c3\u201ame Immortelle",
        "start_year": 1996,
        "end_year": null,
        "city": "Vienna",
        "state": "",
        "country": "Austria",
        "latitude": 48.2083537,
        "longitude": 16.3725042,
        "Influences": "",
        "Influenced_by": "",
        "notes": ""
    },
    {
        "band": "Diorama",
        "start_year": 1996,
        "end_year": null,
        "city": "Reutlingen",
        "state": "",
        "country": "Germany",
        "latitude": 48.4919508,
        "longitude": 9.2114144,
        "Influences": "",
        "Influenced_by": "",
        "notes": ""
    },
    {
        "band": "Dead Can Dance",
        "start_year": 1981,
        "end_year": null,
        "city": "Melbourne",
        "state": "",
        "country": "Australia",
        "latitude": -37.8142454,
        "longitude": 144.9631732,
        "Influences": "",
        "Influenced_by": "",
        "notes": ""
    },
    {
        "band": "Kirlian Camera",
        "start_year": 1979,
        "end_year": null,
        "city": "Parma",
        "state": "",
        "country": "Italy",
        "latitude": 44.8013678,
        "longitude": 10.3280833,
        "Influences": "",
        "Influenced_by": "",
        "notes": ""
    },
    {
        "band": "Theodor Bastard",
        "start_year": 1996,
        "end_year": null,
        "city": "St Petersburg",
        "state": "",
        "country": "Russia",
        "latitude": 59.9606739,
        "longitude": 30.1586551,
        "Influences": "",
        "Influenced_by": "",
        "notes": ""
    },
    {
        "band": "Black Tape for a Blue Girl",
        "start_year": 1986,
        "end_year": null,
        "city": "Los Angeles",
        "state": "California",
        "country": "USA",
        "latitude": 34.0536909,
        "longitude": -118.242766,
        "Influences": "",
        "Influenced_by": "",
        "notes": ""
    },
    {
        "band": "Collide",
        "start_year": 1992,
        "end_year": null,
        "city": "Los Angeles",
        "state": "California",
        "country": "USA",
        "latitude": 34.0536909,
        "longitude": -118.242766,
        "Influences": "",
        "Influenced_by": "",
        "notes": ""
    },
    {
        "band": "Joy Division",
        "start_year": 1976,
        "end_year": 1980,
        "city": "Salford",
        "state": "",
        "country": "England",
        "latitude": 53.4877463,
        "longitude": -2.2891921,
        "Influences": "",
        "Influenced_by": "",
        "notes": ""
    },
    {
        "band": "The Sisters of Mercy",
        "start_year": 1977,
        "end_year": null,
        "city": "Leeds",
        "state": "",
        "country": "England",
        "latitude": 53.7974185,
        "longitude": -1.5437941,
        "Influences": "",
        "Influenced_by": "",
        "notes": ""
    },
    {
        "band": "Ash Code",
        "start_year": 2014,
        "end_year": null,
        "city": "Napoli",
        "state": "",
        "country": "Italy",
        "latitude": 40.8358846,
        "longitude": 14.2487679,
        "Influences": "",
        "Influenced_by": "",
        "notes": ""
    },
    {
        "band": "The Cure",
        "start_year": 1976,
        "end_year": null,
        "city": "Crawley, West Sussex",
        "state": "",
        "country": "England",
        "latitude": 51.1103444,
        "longitude": -0.1801094,
        "Influences": "",
        "Influenced_by": "",
        "notes": ""
    },
    {
        "band": "Field of the Nephilim",
        "start_year": 1984,
        "end_year": null,
        "city": "Stevenage, Hertfordshire",
        "state": "",
        "country": "England",
        "latitude": 51.9016663,
        "longitude": -0.2027155,
        "Influences": "",
        "Influenced_by": "",
        "notes": ""
    },
    {
        "band": "Linea Aspera",
        "start_year": 2011,
        "end_year": null,
        "city": "London",
        "state": "",
        "country": "England",
        "latitude": 51.4893335,
        "longitude": -0.14405508452768728,
        "Influences": "",
        "Influenced_by": "",
        "notes": ""
    },
    {
        "band": "Killing Joke",
        "start_year": 1978,
        "end_year": null,
        "city": "Cheltenham",
        "state": "",
        "country": "England",
        "latitude": 51.8995685,
        "longitude": -2.0711559,
        "Influences": "",
        "Influenced_by": "",
        "notes": ""
    },
    {
        "band": "Lacrimosa",
        "start_year": 1990,
        "end_year": null,
        "city": "\tFrankfurt",
        "state": "",
        "country": "Germany",
        "latitude": 50.1106444,
        "longitude": 8.6820917,
        "Influences": "",
        "Influenced_by": "",
        "notes": ""
    },
    {
        "band": "The Birthday Masacre",
        "start_year": 1999,
        "end_year": null,
        "city": "Ontario",
        "state": "",
        "country": "Canada",
        "latitude": 50.000678,
        "longitude": -86.000977,
        "Influences": "",
        "Influenced_by": "",
        "notes": ""
    },
    {
        "band": "London After Midnight",
        "start_year": 1990,
        "end_year": null,
        "city": "Los Angeles",
        "state": "California",
        "country": "USA",
        "latitude": 34.0536909,
        "longitude": -118.242766,
        "Influences": "",
        "Influenced_by": "",
        "notes": ""
    },
    {
        "band": "Molchat Doma",
        "start_year": 2017,
        "end_year": null,
        "city": "Minsk",
        "state": "",
        "country": "Belarus",
        "latitude": 53.9024716,
        "longitude": 27.5618225,
        "Influences": "",
        "Influenced_by": "",
        "notes": ""
    },
    {
        "band": "Night Club",
        "start_year": 2011,
        "end_year": null,
        "city": "Los Angeles",
        "state": "California",
        "country": "USA",
        "latitude": 34.0536909,
        "longitude": -118.242766,
        "Influences": "",
        "Influenced_by": "",
        "notes": ""
    },
    {
        "band": "The Frozen Autumn",
        "start_year": 1993,
        "end_year": null,
        "city": "Turin",
        "state": "",
        "country": "Italy",
        "latitude": 45.0677551,
        "longitude": 7.6824892,
        "Influences": "",
        "Influenced_by": "",
        "notes": ""
    },
    {
        "band": "Project Pitchfork",
        "start_year": 1989,
        "end_year": null,
        "city": "Hamburg",
        "state": "",
        "country": "Germany",
        "latitude": 53.5672881,
        "longitude": 9.941726150411604,
        "Influences": "",
        "Influenced_by": "",
        "notes": ""
    },
    {
        "band": "Midnight Syndicate",
        "start_year": 1996,
        "end_year": null,
        "city": "Chardon",
        "state": "Ohio",
        "country": "USA",
        "latitude": 41.5824944,
        "longitude": -81.2034066,
        "Influences": "",
        "Influenced_by": "",
        "notes": ""
    },
    {
        "band": "VNV Nation",
        "start_year": 1990,
        "end_year": null,
        "city": "London",
        "state": "",
        "country": "England",
        "latitude": 51.4893335,
        "longitude": -0.14405508452768728,
        "Influences": "",
        "Influenced_by": "",
        "notes": ""
    },
    {
        "band": "Christian Death",
        "start_year": 1979,
        "end_year": null,
        "city": "Los Angeles",
        "state": "California",
        "country": "USA",
        "latitude": 34.0536909,
        "longitude": -118.242766,
        "Influences": "",
        "Influenced_by": "",
        "notes": ""
    },
    {
        "band": "Darling Violetta",
        "start_year": 1997,
        "end_year": null,
        "city": "Los Angeles",
        "state": "California",
        "country": "USA",
        "latitude": 34.0536909,
        "longitude": -118.242766,
        "Influences": "",
        "Influenced_by": "",
        "notes": ""
    },
    {
        "band": "Nox Arcana",
        "start_year": 2003,
        "end_year": null,
        "city": "Cleveland",
        "state": "Ohio",
        "country": "USA",
        "latitude": 41.4996574,
        "longitude": -81.6936772,
        "Influences": "",
        "Influenced_by": "",
        "notes": ""
    },
    {
        "band": "Woldsheim",
        "start_year": 1987,
        "end_year": 2005,
        "city": "Hamburg",
        "state": "",
        "country": "Germany",
        "latitude": 53.5672881,
        "longitude": 9.941726150411604,
        "Influences": "",
        "Influenced_by": "",
        "notes": ""
    }
]